[
  {
    "id": 0,
    "name": "tempor",
    "latitude": -6.36928,
    "longitude": 97.094556,
    "description": "Exercitation aute ipsum id officia eu reprehenderit anim ad aute ut ad. Commodo amet dolore minim elit occaecat officia consequat enim ea. Sint sit ex ea enim pariatur id duis culpa anim. Sunt irure id mollit nisi eiusmod non anim dolore voluptate officia esse Lorem reprehenderit.\r\n"
  },
  {
    "id": 1,
    "name": "occaecat",
    "latitude": -33.336501,
    "longitude": -80.18332,
    "description": "Labore amet duis est laboris ipsum magna tempor anim aliqua ad sint irure ea non. Sunt nulla non in duis. Quis veniam elit amet veniam ipsum aliquip consectetur aute in. Ut aute reprehenderit in cillum elit. Culpa ea culpa esse id est anim enim ut.\r\n"
  },
  {
    "id": 2,
    "name": "id",
    "latitude": -3.534774,
    "longitude": -39.649173,
    "description": "Aliquip aute labore qui cillum culpa occaecat ea laborum nulla deserunt Lorem ea. Dolor eu culpa est et commodo sint quis ullamco. Non officia dolore eu nostrud voluptate dolore aliqua. Cillum consectetur do labore fugiat. Sunt minim qui enim irure non id cillum ullamco.\r\n"
  },
  {
    "id": 3,
    "name": "commodo",
    "latitude": 53.839685,
    "longitude": -113.348102,
    "description": "Laborum adipisicing aliqua incididunt aliquip id occaecat. Consequat ex quis anim ex ad. Cupidatat laborum ex voluptate laborum adipisicing reprehenderit qui aliquip voluptate sunt do laborum veniam. Culpa laborum aliqua exercitation ad ex velit nostrud non dolor eu Lorem non. Officia deserunt et nulla eiusmod ullamco ipsum.\r\n"
  },
  {
    "id": 4,
    "name": "et",
    "latitude": -1.693173,
    "longitude": -66.117984,
    "description": "Culpa pariatur ex sint do labore do laborum. Deserunt nulla sit deserunt elit ipsum quis pariatur laboris irure nisi. Eiusmod sunt elit consectetur incididunt nulla laborum ipsum quis consectetur dolore non. Ad adipisicing non cillum qui.\r\n"
  },
  {
    "id": 5,
    "name": "eu",
    "latitude": 80.222218,
    "longitude": -127.873921,
    "description": "Ad est laboris in quis veniam officia eu. Minim id in eu ullamco mollit ad. Sit in magna magna in irure amet voluptate. Enim irure ut esse pariatur.\r\n"
  },
  {
    "id": 6,
    "name": "occaecat",
    "latitude": -24.31466,
    "longitude": -57.686445,
    "description": "Cupidatat non Lorem ad quis excepteur qui nulla commodo elit et nisi nulla ad et. Cillum incididunt sit non ullamco tempor. Cupidatat in fugiat in consectetur commodo est aliquip. Elit minim nulla proident elit quis sint commodo occaecat ex labore consectetur esse.\r\n"
  },
  {
    "id": 7,
    "name": "id",
    "latitude": -81.843421,
    "longitude": 124.776371,
    "description": "Dolore aute id ad aliqua sunt cupidatat duis quis dolor non deserunt pariatur officia eiusmod. Ea aute irure ut ullamco anim elit proident tempor commodo duis consectetur. Adipisicing occaecat quis cillum ex cupidatat labore irure aute dolore incididunt aute nulla elit. Ut officia amet elit est adipisicing aliqua cupidatat elit excepteur qui. Ipsum pariatur ex incididunt fugiat ad veniam qui Lorem. Officia commodo incididunt nulla duis irure est aliquip magna. Proident nisi laboris cupidatat nulla commodo magna labore proident ut mollit pariatur fugiat officia magna.\r\n"
  },
  {
    "id": 8,
    "name": "ipsum",
    "latitude": -50.03666,
    "longitude": 35.185864,
    "description": "Proident irure enim nulla minim sunt ex proident. Ullamco commodo consequat sunt Lorem proident cupidatat ullamco dolore incididunt. Aute cupidatat nostrud adipisicing anim. Ut veniam reprehenderit veniam culpa sit nisi. Labore exercitation consequat anim magna. Fugiat proident ullamco exercitation quis ea. Ad ea fugiat enim labore magna exercitation nulla cupidatat sit anim sit veniam pariatur nulla.\r\n"
  },
  {
    "id": 9,
    "name": "deserunt",
    "latitude": -43.666359,
    "longitude": 73.34969,
    "description": "Qui incididunt anim laborum et. Ea est ullamco occaecat duis anim ipsum. Ipsum laborum nisi occaecat proident laboris adipisicing nisi ullamco officia. Cillum in laboris quis ipsum laborum anim sunt qui. Magna dolore aliquip tempor fugiat adipisicing ad aliquip id Lorem nulla voluptate laborum dolore. Officia reprehenderit voluptate dolor proident nisi id nisi proident amet tempor sunt est elit.\r\n"
  },
  {
    "id": 10,
    "name": "dolor",
    "latitude": -6.363536,
    "longitude": -87.883394,
    "description": "Nisi duis anim pariatur exercitation reprehenderit exercitation. Qui excepteur commodo velit occaecat nisi aliqua nostrud occaecat nulla voluptate. Tempor cillum aliqua minim proident id.\r\n"
  },
  {
    "id": 11,
    "name": "do",
    "latitude": 12.23672,
    "longitude": 11.281091,
    "description": "Ipsum incididunt anim non cillum laborum eu laboris est exercitation. Id reprehenderit aliquip ut dolor. Quis dolore nostrud dolore fugiat eiusmod esse duis est sit. Magna elit cupidatat non dolor ullamco quis Lorem proident nostrud magna tempor eiusmod. Ex eu amet quis qui non pariatur officia ut.\r\n"
  },
  {
    "id": 12,
    "name": "nulla",
    "latitude": 28.782616,
    "longitude": -164.19749,
    "description": "Fugiat minim et reprehenderit id est qui aliquip eu eu ea adipisicing consequat. Pariatur labore esse eu eiusmod consectetur nulla aute excepteur. Ea deserunt minim incididunt commodo officia elit consequat nulla nulla dolor velit ad eu.\r\n"
  },
  {
    "id": 13,
    "name": "aliqua",
    "latitude": 36.846204,
    "longitude": -70.744459,
    "description": "Ad cillum aliquip ut elit amet pariatur irure veniam. Velit ex eu consectetur minim ad aliquip. Non sunt dolore mollit nostrud ut Lorem nisi commodo ad magna culpa fugiat qui.\r\n"
  },
  {
    "id": 14,
    "name": "nisi",
    "latitude": 44.970896,
    "longitude": -26.743295,
    "description": "Mollit ipsum exercitation non irure labore ut commodo. Nisi officia dolore culpa excepteur Lorem. Ea reprehenderit sunt enim id sit aute.\r\n"
  },
  {
    "id": 15,
    "name": "fugiat",
    "latitude": 28.040797,
    "longitude": 59.217564,
    "description": "Ut cupidatat pariatur eiusmod ipsum eiusmod dolor. Ut fugiat velit nulla id cupidatat. Fugiat et sint tempor ipsum eu labore culpa nostrud esse commodo. Deserunt excepteur magna labore amet eiusmod minim laborum pariatur. Lorem sit irure duis sint Lorem non nulla nisi fugiat magna tempor. Ut excepteur eiusmod consectetur consectetur consectetur do eiusmod duis veniam qui voluptate ad id.\r\n"
  },
  {
    "id": 16,
    "name": "ut",
    "latitude": 41.504997,
    "longitude": -149.595819,
    "description": "Qui ad voluptate irure eiusmod qui in aliquip est reprehenderit Lorem magna sunt ut sint. Reprehenderit tempor ad proident adipisicing. Quis adipisicing fugiat et cillum enim adipisicing anim ad.\r\n"
  },
  {
    "id": 17,
    "name": "adipisicing",
    "latitude": 88.134508,
    "longitude": 117.945439,
    "description": "Nostrud duis Lorem tempor non aute adipisicing sit sint voluptate deserunt adipisicing. Consequat aute pariatur cupidatat magna. Do ea dolor officia consequat reprehenderit. Pariatur consequat enim occaecat labore nulla esse. Ex consectetur laborum sunt sint irure cillum dolor cillum.\r\n"
  },
  {
    "id": 18,
    "name": "laborum",
    "latitude": -16.250712,
    "longitude": 101.755581,
    "description": "Non sunt deserunt minim aliquip dolore cillum enim nulla incididunt minim tempor. Nisi veniam eu commodo anim et do velit amet duis dolor. Nisi anim sunt consequat laborum magna do qui duis cupidatat duis ullamco. Exercitation esse excepteur occaecat ea sit aliquip et excepteur exercitation ullamco id aliqua. Quis veniam consequat ullamco magna cillum exercitation irure aliquip.\r\n"
  },
  {
    "id": 19,
    "name": "in",
    "latitude": 4.653528,
    "longitude": -30.557673,
    "description": "Ipsum mollit aute ipsum esse do veniam aliqua culpa fugiat ad mollit excepteur qui laboris. Occaecat nulla aliqua et et cillum tempor. Commodo ea fugiat excepteur quis incididunt.\r\n"
  },
  {
    "id": 20,
    "name": "dolore",
    "latitude": 4.594444,
    "longitude": 128.448418,
    "description": "Tempor non sint incididunt cillum. Culpa in esse laborum aliquip incididunt. Minim est occaecat pariatur velit Lorem in culpa do et Lorem occaecat. Amet nisi nisi laboris sint eu. Eu consectetur duis quis voluptate aute eiusmod Lorem non nisi ea pariatur irure. Non fugiat aute Lorem minim irure consequat esse anim incididunt elit cupidatat. Cillum deserunt eiusmod labore qui occaecat.\r\n"
  },
  {
    "id": 21,
    "name": "amet",
    "latitude": -39.578682,
    "longitude": 137.461,
    "description": "Laborum tempor culpa qui voluptate est esse minim anim culpa. Laborum in minim eiusmod exercitation et amet et cupidatat dolor mollit. Nisi eu mollit adipisicing Lorem commodo ullamco eu aliquip incididunt tempor quis. Quis duis deserunt tempor nulla eiusmod duis. Nisi ex minim culpa consequat irure ea id nostrud incididunt anim ullamco commodo officia. Ea exercitation laboris duis voluptate dolore. Id est ut in proident incididunt eu velit ut ea.\r\n"
  },
  {
    "id": 22,
    "name": "id",
    "latitude": 46.207543,
    "longitude": 23.035104,
    "description": "Proident sunt magna aliqua sint ipsum proident non aliquip fugiat. Ea Lorem culpa excepteur do incididunt. Fugiat proident culpa Lorem qui qui. Do et est eiusmod tempor eu. Adipisicing eiusmod sint laboris pariatur do ullamco commodo consectetur enim id exercitation occaecat exercitation officia. Consectetur aliquip eu eiusmod nulla Lorem deserunt reprehenderit qui dolore fugiat. Adipisicing veniam sint voluptate nisi nostrud ipsum ad reprehenderit et ullamco laborum non.\r\n"
  },
  {
    "id": 23,
    "name": "quis",
    "latitude": -57.946559,
    "longitude": 66.710497,
    "description": "Consectetur veniam in ea sit proident cillum. Lorem aliquip esse tempor nisi consectetur fugiat irure dolor labore elit consectetur irure sunt. Enim proident quis minim voluptate excepteur deserunt duis elit. Irure proident ad incididunt enim id.\r\n"
  },
  {
    "id": 24,
    "name": "nisi",
    "latitude": 63.738323,
    "longitude": -117.220229,
    "description": "Fugiat sit aliqua dolor nostrud ut dolor nisi reprehenderit est reprehenderit Lorem. Consequat ullamco ex excepteur reprehenderit cupidatat pariatur velit. Aliquip do sunt incididunt commodo esse officia cillum proident nisi fugiat proident et aliqua.\r\n"
  },
  {
    "id": 25,
    "name": "ad",
    "latitude": -45.402617,
    "longitude": -52.358481,
    "description": "Ea elit ea proident eiusmod irure eiusmod ut qui est. In eiusmod tempor cupidatat pariatur officia proident est reprehenderit velit velit velit labore consequat proident. Minim nostrud nulla reprehenderit officia quis anim ullamco quis aliquip in ullamco culpa est elit. Non proident commodo est aliqua dolore duis tempor enim pariatur in ea non. Consequat nostrud officia exercitation eiusmod. Consectetur laborum veniam do ipsum id elit voluptate officia. Sunt quis consectetur esse reprehenderit amet duis duis consequat do incididunt reprehenderit dolore elit dolore.\r\n"
  },
  {
    "id": 26,
    "name": "deserunt",
    "latitude": 4.413499,
    "longitude": -84.35376,
    "description": "Eu ea nostrud duis ullamco duis tempor do dolore eiusmod. Do minim duis aliquip veniam veniam dolore ea. Eiusmod eiusmod Lorem eiusmod dolor in ea minim eu elit commodo sunt. Cupidatat irure occaecat deserunt reprehenderit magna reprehenderit proident eiusmod dolor mollit. Eu consequat mollit eiusmod ut. Magna irure ipsum laborum dolor.\r\n"
  },
  {
    "id": 27,
    "name": "aliquip",
    "latitude": -71.960937,
    "longitude": -104.625662,
    "description": "Do dolor ea eiusmod id do aliquip deserunt aliqua quis culpa dolore non laboris aliquip. Dolore qui nisi occaecat consectetur enim officia reprehenderit minim fugiat officia aliquip ut aute incididunt. Fugiat ea qui tempor ut commodo do adipisicing aute ut Lorem voluptate. Veniam nostrud mollit quis dolor commodo in nostrud ea consectetur enim laboris eu. Tempor do proident quis elit. Do labore ut nulla tempor culpa pariatur commodo adipisicing duis sit mollit tempor voluptate duis.\r\n"
  },
  {
    "id": 28,
    "name": "dolor",
    "latitude": -15.648055,
    "longitude": 174.219387,
    "description": "Ea proident commodo ut do voluptate sunt laborum cillum excepteur proident exercitation. Est aute sint magna dolor occaecat amet ut minim elit. Aute culpa qui incididunt non duis dolore irure aliquip ex qui ad excepteur. Duis duis ex aliqua id incididunt magna cillum do eu nulla irure laboris. Voluptate nisi amet labore esse sint sunt duis minim cillum in. Id culpa nulla adipisicing in do commodo commodo et eu voluptate nostrud.\r\n"
  },
  {
    "id": 29,
    "name": "adipisicing",
    "latitude": -38.51828,
    "longitude": -28.54463,
    "description": "Laboris duis velit commodo magna quis sunt laborum consectetur sint exercitation sint est est. Aute ex aliquip in consectetur est eiusmod adipisicing quis elit. Magna sint magna voluptate commodo officia eu labore elit ad id culpa. Do ea duis eiusmod eiusmod cupidatat magna labore Lorem occaecat.\r\n"
  }
]
